[
  {
    "id": 1,
    "name": "gul",
    "location": "Ireland",
    "Phone": "1234567890",
    "courses": [
      "Java",
      "Selenium"
    ]
  },
  {
    "id": 2,
    "name": "waseem",
    "location": "Clane",
    "Phone": "3457892098",
    "courses": [
      "Python",
      "Appium"
    ]
  },
  {
    "id": 3,
    "name": "sajid",
    "location": "Enfield",
    "Phone": "1568368937",
    "courses": [
      "C++",
      "RestAPI"
    ]
  },
  {
    "name": "Jerry",
    "location": "Trim",
    "Phone": "1563856937",
    "courses": [
      "C",
      "C#"
    ],
    "id": 4
  },
  {
    "name": "Jerry",
    "location": "Trim",
    "Phone": "1563856937",
    "courses": [
      "C",
      "C#"
    ],
    "id": 6
  },
  {
    "name": "Jerry",
    "location": "Trim",
    "Phone": "1563856937",
    "courses": [
      "C",
      "C#"
    ],
    "id": 8
  },
  {
    "name": "Jerry",
    "location": "Trim",
    "Phone": "1563856937",
    "courses": [
      "C",
      "C#"
    ],
    "id": 9
  },
  {
    "name": "Jerry",
    "location": "Trim",
    "Phone": "1563856937",
    "courses": [
      "C",
      "C#"
    ],
    "id": 11
  }
]